City_ID,City,Country,Date,Lat,Lng,Max Temp,Humidity,Cloudiness,Wind Speed,Current Description
0,Puerto Ayora,EC,2022-08-10 22:01:58,-0.7393,-90.3518,70.56,91,83,8.01,broken clouds
1,Tuatapere,NZ,2022-08-10 22:02:22,-46.1333,167.6833,38.43,87,19,4.0,few clouds
2,Yar-Sale,RU,2022-08-10 22:01:53,66.8333,70.8333,47.32,73,15,6.35,few clouds
3,Ilulissat,GL,2022-08-10 22:02:08,69.2167,-51.1,36.07,98,100,6.31,light rain
4,San Matias,BO,2022-08-10 22:06:49,-16.3667,-58.4,64.6,34,0,4.21,clear sky
5,Hambantota,LK,2022-08-10 22:04:52,6.1241,81.1185,77.34,100,20,9.22,few clouds
6,Avarua,CK,2022-08-10 22:01:44,-21.2078,-159.775,77.05,65,20,17.27,few clouds
7,Bethanien,NA,2022-08-10 22:06:50,-26.502,17.1583,56.26,29,23,1.21,few clouds
8,Hobart,AU,2022-08-10 22:00:19,-42.8794,147.3294,41.27,88,0,4.61,clear sky
9,Tuktoyaktuk,CA,2022-08-10 22:02:08,69.4541,-133.0374,47.43,75,100,18.63,overcast clouds
10,North Bend,US,2022-08-10 22:03:43,43.4065,-124.2243,78.24,53,75,17.27,broken clouds
11,East London,ZA,2022-08-10 22:01:57,-33.0153,27.9116,61.54,78,81,3.91,broken clouds
12,Bluff,NZ,2022-08-10 22:01:45,-46.6,168.3333,44.8,67,74,8.28,broken clouds
13,Busselton,AU,2022-08-10 22:01:41,-33.65,115.3333,51.87,83,64,5.21,broken clouds
14,Mataura,NZ,2022-08-10 22:01:50,-46.1927,168.8643,44.47,89,49,2.75,scattered clouds
15,Kununurra,AU,2022-08-10 22:03:43,-15.7667,128.7333,73.38,27,18,8.05,few clouds
16,Beauvais,FR,2022-08-10 22:06:51,49.4167,2.0,75.45,47,0,10.36,clear sky
17,Punta Arenas,CL,2022-08-10 22:01:56,-53.15,-70.9167,42.12,81,100,6.67,overcast clouds
18,Los Llanos De Aridane,ES,2022-08-10 22:02:48,28.6585,-17.9182,68.13,91,40,16.11,scattered clouds
19,Albany,US,2022-08-10 22:00:44,42.6001,-73.9662,79.66,62,12,6.29,few clouds
20,Yumen,CN,2022-08-10 22:02:45,40.2833,97.2,75.74,38,3,9.84,clear sky
21,Upernavik,GL,2022-08-10 22:01:37,72.7868,-56.1549,41.4,84,95,10.38,overcast clouds
22,Trinidad,BO,2022-08-10 22:06:52,-14.8333,-64.9,69.26,41,0,3.91,clear sky
23,Rikitea,PF,2022-08-10 22:01:42,-23.1203,-134.9692,73.31,72,91,21.14,overcast clouds
24,Progreso,MX,2022-08-10 22:06:53,21.2833,-89.6667,84.31,82,56,14.29,broken clouds
25,Victoria,HK,2022-08-10 22:00:17,22.2855,114.1577,83.32,86,100,11.01,overcast clouds
26,Kaitangata,NZ,2022-08-10 22:03:01,-46.2817,169.8464,39.45,87,91,1.61,overcast clouds
27,Ponta Do Sol,PT,2022-08-10 22:01:55,32.6667,-17.1,72.23,83,47,5.84,scattered clouds
28,Salalah,OM,2022-08-10 22:02:37,17.0151,54.0924,76.77,90,98,8.99,overcast clouds
29,Ushuaia,AR,2022-08-10 22:01:39,-54.8,-68.3,36.95,100,100,5.59,light rain
30,Saskylakh,RU,2022-08-10 22:01:57,71.9167,114.0833,49.3,78,45,12.48,scattered clouds
31,At-Bashi,KG,2022-08-10 22:04:46,41.1702,75.8106,54.57,65,57,1.74,broken clouds
32,Pombas,CV,2022-08-10 22:06:54,17.1503,-25.0201,74.8,81,71,12.64,broken clouds
33,Nouadhibou,MR,2022-08-10 21:58:40,20.931,-17.0347,73.38,78,0,20.71,sand
34,Katherine,AU,2022-08-10 22:02:18,-14.4667,132.2667,64.72,72,9,6.91,clear sky
35,Lebu,CL,2022-08-10 22:01:51,-37.6167,-73.65,48.92,83,1,3.0,clear sky
36,Beringovskiy,RU,2022-08-10 22:03:09,63.05,179.3167,59.31,72,9,4.23,clear sky
37,Iracoubo,GF,2022-08-10 22:06:55,5.4802,-53.2011,80.26,81,15,10.16,few clouds
38,Ribeira Grande,PT,2022-08-10 22:02:47,38.5167,-28.7,72.77,73,59,10.0,broken clouds
39,Yellowknife,CA,2022-08-10 22:02:40,62.456,-114.3525,71.28,49,100,10.11,overcast clouds
40,Jamestown,US,2022-08-10 22:00:33,42.097,-79.2353,77.52,51,7,5.01,clear sky
41,Huanren,CN,2022-08-10 22:06:56,41.2647,125.3667,63.5,89,5,1.48,clear sky
42,New Norfolk,AU,2022-08-10 22:01:39,-42.7826,147.0587,40.91,80,31,1.97,scattered clouds
43,Constitucion,CL,2022-08-10 22:06:56,-35.3333,-72.4167,51.17,78,0,8.88,clear sky
44,Chifeng,CN,2022-08-10 22:06:20,42.2683,118.9636,66.4,71,28,1.28,scattered clouds
45,Kavaratti,IN,2022-08-10 22:03:25,10.5669,72.642,81.28,83,71,21.72,broken clouds
46,Bizhbulyak,RU,2022-08-10 22:06:57,53.6967,54.2642,68.23,68,51,2.37,broken clouds
47,Saint-Augustin,CA,2022-08-10 22:04:58,51.226,-58.6502,64.22,57,0,10.71,clear sky
48,Sao Joao Da Barra,BR,2022-08-10 22:06:57,-21.6403,-41.0511,73.99,80,100,10.76,overcast clouds
49,Mahebourg,MU,2022-08-10 22:02:36,-20.4081,57.7,68.25,73,89,20.58,light rain
50,Kidal,ML,2022-08-10 22:03:45,18.4411,1.4078,88.09,38,78,15.05,light rain
51,Vaini,TO,2022-08-10 22:01:52,-21.2,-175.2,77.29,87,26,19.86,scattered clouds
52,Lagoa,PT,2022-08-10 22:02:52,39.05,-27.9833,71.01,72,82,8.16,broken clouds
53,Port Blair,IN,2022-08-10 22:03:59,11.6667,92.75,80.96,81,100,12.33,overcast clouds
54,Belmonte,BR,2022-08-10 22:06:58,-15.8631,-38.8828,74.23,76,2,13.71,clear sky
55,Iqaluit,CA,2022-08-10 22:02:54,63.7506,-68.5145,54.7,66,3,10.0,clear sky
56,Baloda Bazar,IN,2022-08-10 22:05:42,21.6667,82.1667,74.91,93,100,10.69,overcast clouds
57,Jiangyou,CN,2022-08-10 22:06:59,31.7667,104.7167,78.66,80,100,2.28,overcast clouds
58,Yuancheng,CN,2022-08-10 22:06:59,36.652,107.7896,71.85,92,72,2.77,broken clouds
59,Isangel,VU,2022-08-10 22:03:04,-19.55,169.2667,70.93,56,0,15.9,clear sky
60,Greenville,US,2022-08-10 22:07:00,35.6127,-77.3663,96.96,34,0,6.91,clear sky
61,Waingapu,ID,2022-08-10 22:03:53,-9.6567,120.2641,74.68,84,34,5.53,scattered clouds
62,Pisco,PE,2022-08-10 22:02:50,-13.7,-76.2167,61.02,82,6,6.04,clear sky
63,Marathon,US,2022-08-10 22:03:14,44.9,-89.7668,85.24,57,40,10.36,scattered clouds
64,Luanda,AO,2022-08-10 22:02:52,-8.8368,13.2343,66.56,90,0,6.62,clear sky
65,Dikson,RU,2022-08-10 22:02:33,73.5069,80.5464,41.94,90,99,10.83,overcast clouds
66,Saldanha,ZA,2022-08-10 22:01:40,-33.0117,17.9442,55.89,92,100,1.66,overcast clouds
67,Daru,PG,2022-08-10 22:02:19,-9.0763,143.2092,76.95,85,85,18.41,overcast clouds
68,Atuona,PF,2022-08-10 22:01:41,-9.8,-139.0333,77.4,76,13,21.72,few clouds
69,Tarko-Sale,RU,2022-08-10 22:07:01,64.9225,77.785,49.6,66,32,3.22,scattered clouds
70,Tanabe,JP,2022-08-10 22:07:01,33.7333,135.3667,81.37,85,100,5.08,overcast clouds
71,San Quintin,MX,2022-08-10 22:07:01,30.4833,-115.95,78.31,65,43,12.97,scattered clouds
72,Katsuura,JP,2022-08-10 22:01:42,35.1333,140.3,82.06,86,84,14.36,broken clouds
73,Cabra,ES,2022-08-10 22:02:04,37.4725,-4.4421,79.66,64,0,4.88,clear sky
74,Butaritari,KI,2022-08-10 22:02:34,3.0707,172.7902,82.02,74,87,20.6,light rain
75,Severo-Yeniseyskiy,RU,2022-08-10 22:07:02,60.3725,93.0408,51.1,99,30,2.89,scattered clouds
76,Laranjeiras Do Sul,BR,2022-08-10 22:07:02,-25.4078,-52.4161,45.32,93,87,4.12,overcast clouds
77,Bambous Virieux,MU,2022-08-10 22:01:36,-20.3428,57.7575,68.22,74,96,20.33,light rain
78,Hermanus,ZA,2022-08-10 22:01:44,-34.4187,19.2345,54.81,88,79,6.96,broken clouds
79,Hirara,JP,2022-08-10 22:04:37,24.8,125.2833,79.07,94,20,1.14,few clouds
80,Chernihiv,UA,2022-08-10 22:07:03,51.0,32.0,62.56,84,100,6.85,overcast clouds
81,Businga,CD,2022-08-10 22:07:03,3.3333,20.8833,72.16,96,95,2.62,overcast clouds
82,Muisne,EC,2022-08-10 22:07:04,0.6,-80.0333,75.02,82,100,10.96,overcast clouds
83,Castro,BR,2022-08-10 22:01:14,-24.7911,-50.0119,47.8,90,99,11.03,overcast clouds
84,Severo-Kurilsk,RU,2022-08-10 22:01:37,50.6789,156.125,56.52,90,46,9.86,scattered clouds
85,Ancud,CL,2022-08-10 22:02:19,-41.8697,-73.8203,51.22,93,100,15.75,light rain
86,Antofagasta,CL,2022-08-10 22:05:04,-23.65,-70.4,56.48,77,21,4.81,few clouds
87,Cairns,AU,2022-08-10 22:05:15,-16.9167,145.7667,70.07,88,100,9.22,overcast clouds
88,Banjar,ID,2022-08-10 22:04:09,-8.19,114.9675,74.82,89,25,3.58,scattered clouds
89,Sao Gotardo,BR,2022-08-10 22:07:05,-19.3111,-46.0489,61.47,38,100,12.59,overcast clouds
90,Dingle,PH,2022-08-10 22:05:07,10.9995,122.6711,75.27,90,94,1.23,overcast clouds
91,Hithadhoo,MV,2022-08-10 22:02:11,-0.6,73.0833,81.81,73,22,7.11,few clouds
92,Sao Filipe,CV,2022-08-10 22:02:12,14.8961,-24.4956,78.35,87,68,8.79,broken clouds
93,Olinda,BR,2022-08-10 22:02:01,-8.0089,-34.8553,76.73,78,20,6.91,few clouds
94,Barra,BR,2022-08-10 22:07:06,-11.0894,-43.1417,77.74,33,0,4.25,clear sky
95,Nome,US,2022-08-10 22:07:06,64.5011,-165.4064,50.16,87,100,10.36,overcast clouds
96,Barrow,US,2022-08-10 22:00:53,71.2906,-156.7887,46.42,87,100,16.11,overcast clouds
97,Non Sung,TH,2022-08-10 22:07:06,15.1801,102.2569,74.3,90,100,7.23,overcast clouds
98,Irbeyskoye,RU,2022-08-10 22:07:07,55.6428,95.4522,53.58,96,12,3.4,few clouds
99,Port Alfred,ZA,2022-08-10 22:02:58,-33.5906,26.891,60.44,83,88,5.5,overcast clouds
100,Ban Tak,TH,2022-08-10 22:07:07,17.0432,99.0813,76.21,95,99,4.94,overcast clouds
101,Bud,US,2022-08-10 22:01:34,39.447,-86.1758,83.75,59,51,3.51,broken clouds
102,Dickinson,US,2022-08-10 22:06:01,29.4608,-95.0513,96.13,62,40,17.27,scattered clouds
103,Vila,PT,2022-08-10 22:07:08,42.0304,-8.1588,63.48,82,18,5.12,few clouds
104,Wah,PK,2022-08-10 22:07:08,33.798,72.6957,88.02,60,9,7.45,clear sky
105,Sakrand,PK,2022-08-10 22:07:08,26.1384,68.2736,84.15,84,20,0.0,smoke
106,Tabou,CI,2022-08-10 22:04:58,4.423,-7.3528,75.83,79,96,7.58,overcast clouds
107,Qaanaaq,GL,2022-08-10 22:01:36,77.484,-69.3632,38.39,64,91,2.66,overcast clouds
108,Kahului,US,2022-08-10 21:57:59,20.8947,-156.47,82.85,83,2,10.0,clear sky
109,Deputatskiy,RU,2022-08-10 22:02:51,69.3,139.9,58.14,64,93,1.52,overcast clouds
110,San Andres,CO,2022-08-10 22:00:50,12.5847,-81.7006,81.55,85,100,18.7,overcast clouds
111,Sao Gabriel Da Cachoeira,BR,2022-08-10 22:07:09,-0.1303,-67.0892,85.12,60,68,2.46,broken clouds
112,Suntar,RU,2022-08-10 22:07:10,62.1444,117.6319,58.44,78,100,5.55,overcast clouds
113,Cape Town,ZA,2022-08-10 22:00:54,-33.9258,18.4232,57.34,92,93,3.0,overcast clouds
114,Sekondi,GH,2022-08-10 22:07:10,4.937,-1.7128,73.2,87,29,6.51,scattered clouds
115,Chokurdakh,RU,2022-08-10 22:01:54,70.6333,147.9167,64.22,52,68,11.34,broken clouds
116,Churapcha,RU,2022-08-10 22:07:11,62.0025,132.4325,58.44,87,100,5.08,overcast clouds
117,Guaira,BR,2022-08-10 22:07:11,-20.3183,-48.3106,60.58,43,60,8.86,broken clouds
118,Japura,ID,2022-08-10 22:07:11,-0.3167,102.35,73.67,93,56,3.09,broken clouds
119,Cidreira,BR,2022-08-10 22:04:10,-30.1811,-50.2056,57.25,75,5,8.23,clear sky
120,Ostersund,SE,2022-08-10 22:07:12,63.1792,14.6357,66.65,59,40,5.75,scattered clouds
121,Coos Bay,US,2022-08-10 22:07:12,43.3665,-124.2179,78.31,53,75,17.27,broken clouds
122,Marsaxlokk,MT,2022-08-10 22:07:13,35.8419,14.5431,81.21,69,0,4.61,clear sky
123,Hasaki,JP,2022-08-10 22:02:00,35.7333,140.8333,82.8,87,84,15.37,broken clouds
124,Lompoc,US,2022-08-10 22:03:20,34.6391,-120.4579,91.02,59,0,12.66,clear sky
125,Menongue,AO,2022-08-10 22:07:13,-14.6585,17.691,55.58,25,0,3.58,clear sky
126,Vila Franca Do Campo,PT,2022-08-10 22:02:46,37.7167,-25.4333,73.2,72,53,6.22,broken clouds
127,Hualmay,PE,2022-08-10 22:02:43,-11.0964,-77.6139,65.46,72,16,9.37,few clouds
128,Maceio,BR,2022-08-10 22:06:53,-9.6658,-35.7353,74.64,83,0,6.91,clear sky
129,Ponta Delgada,PT,2022-08-10 22:06:01,37.7333,-25.6667,73.51,73,20,9.22,few clouds
130,Mbandaka,CD,2022-08-10 22:07:14,0.0487,18.2603,74.59,65,30,3.18,scattered clouds
131,Tibiri,NE,2022-08-10 22:07:14,13.5627,7.0485,86.74,54,93,13.27,overcast clouds
132,Nuuk,GL,2022-08-10 22:04:12,64.1835,-51.7216,45.88,93,100,3.0,light rain
133,Hakkari,TR,2022-08-10 22:07:15,37.5833,44.1667,56.98,58,0,4.61,clear sky
134,Hilo,US,2022-08-10 22:02:06,19.7297,-155.09,89.28,77,66,7.0,broken clouds
135,Swan River,CA,2022-08-10 22:02:40,52.1058,-101.2676,70.11,48,29,6.55,scattered clouds
136,Bethel,US,2022-08-10 22:01:15,41.3712,-73.414,87.19,57,1,4.83,clear sky
137,Haldwani,IN,2022-08-10 22:07:15,29.2167,79.5167,81.23,72,100,5.99,heavy intensity rain
138,Richards Bay,ZA,2022-08-10 22:02:17,-28.783,32.0377,64.92,90,47,1.86,scattered clouds
139,Cardston,CA,2022-08-10 22:07:16,49.2,-113.3019,89.98,21,100,13.96,overcast clouds
140,Moundou,TD,2022-08-10 22:07:16,8.5667,16.0833,72.73,94,100,3.2,overcast clouds
141,Mitzic,GA,2022-08-10 22:07:17,0.7821,11.549,69.51,88,11,4.81,few clouds
142,Bredasdorp,ZA,2022-08-10 22:02:00,-34.5322,20.0403,50.97,95,86,3.98,overcast clouds
143,Nanlong,CN,2022-08-10 22:07:17,31.3533,106.0631,81.18,69,98,3.11,overcast clouds
144,Acapulco,MX,2022-08-10 22:00:35,16.8634,-99.8901,84.69,72,100,4.59,overcast clouds
145,Pahrump,US,2022-08-10 22:07:18,36.2083,-115.9839,99.45,26,3,8.68,clear sky
146,Taoudenni,ML,2022-08-10 22:02:22,22.6783,-3.9836,103.48,13,64,4.25,broken clouds
147,Tambovka,RU,2022-08-10 22:07:18,50.0969,128.0489,55.4,95,86,5.46,overcast clouds
148,Thompson,CA,2022-08-10 22:03:05,55.7435,-97.8558,73.11,30,41,5.95,scattered clouds
149,San Patricio,US,2022-08-10 22:02:28,28.017,-97.5169,101.12,38,12,16.75,few clouds
150,Sabya,SA,2022-08-10 22:07:19,17.1495,42.6254,89.74,67,100,7.02,overcast clouds
151,Khatanga,RU,2022-08-10 22:02:56,71.9667,102.5,43.95,78,100,11.01,overcast clouds
152,Fayaoue,NC,2022-08-10 22:06:16,-20.65,166.5333,69.75,49,0,8.25,clear sky
153,Sechura,PE,2022-08-10 22:07:19,-5.5569,-80.8222,72.01,64,21,17.07,few clouds
154,Kichmengskiy Gorodok,RU,2022-08-10 22:07:19,59.9816,45.7854,54.59,97,100,2.95,overcast clouds
155,Naron,ES,2022-08-10 22:07:20,43.5167,-8.1528,70.59,95,96,3.78,light rain
156,Poum,NC,2022-08-10 22:03:27,-20.2333,164.0167,69.87,57,0,19.24,clear sky
157,Sinnamary,GF,2022-08-10 22:07:20,5.3833,-52.95,79.92,83,26,10.18,scattered clouds
158,Norman Wells,CA,2022-08-10 21:57:52,65.282,-126.8329,55.26,51,100,13.0,overcast clouds
159,Ojinaga,MX,2022-08-10 22:07:21,29.5667,-104.4167,101.57,28,0,0.0,clear sky
160,Carquefou,FR,2022-08-10 22:07:21,47.2982,-1.4902,82.47,38,0,6.91,clear sky
161,Lastoursville,GA,2022-08-10 22:07:21,-0.8143,12.7287,79.7,58,55,4.03,broken clouds
162,Seoul,KR,2022-08-10 21:59:29,37.5683,126.9778,74.59,100,100,4.61,overcast clouds
163,Arraial Do Cabo,BR,2022-08-10 22:02:35,-22.9661,-42.0278,67.91,80,100,25.57,light rain
164,Vila Velha,BR,2022-08-10 22:06:45,-20.3297,-40.2925,78.75,75,0,12.66,clear sky
165,Ngunguru,NZ,2022-08-10 22:07:22,-35.6167,174.5,54.23,80,66,17.9,broken clouds
166,Vzmorye,RU,2022-08-10 22:07:22,54.6961,20.2361,53.69,88,20,4.18,few clouds
167,Kapaa,US,2022-08-10 22:02:32,22.0752,-159.319,82.47,74,28,5.99,scattered clouds
168,Osakarovka,KZ,2022-08-10 22:07:23,50.565,72.5692,55.96,96,94,6.42,overcast clouds
169,Half Moon Bay,US,2022-08-10 22:00:09,37.4636,-122.4286,87.42,66,0,17.27,clear sky
170,Vostok,RU,2022-08-10 22:07:23,46.4856,135.8833,59.85,86,43,4.68,scattered clouds
171,Baruun-Urt,MN,2022-08-10 22:04:14,46.6806,113.2792,58.87,67,96,0.38,overcast clouds
172,Carutapera,BR,2022-08-10 22:07:24,-1.195,-46.02,77.52,85,62,6.91,broken clouds
173,Khandyga,RU,2022-08-10 22:07:24,62.6667,135.6,57.0,92,100,2.35,overcast clouds
174,Broome,US,2022-08-10 22:00:19,42.2506,-75.833,79.63,58,38,1.99,scattered clouds
175,Tyumentsevo,RU,2022-08-10 22:07:25,53.3224,81.498,60.46,77,59,6.85,broken clouds
176,Suhbaatar,MN,2022-08-10 22:07:25,50.2314,106.2078,57.51,91,81,2.91,broken clouds
177,Rabo De Peixe,PT,2022-08-10 22:07:25,37.8,-25.5833,72.28,68,20,9.22,few clouds
178,Jiuquan,CN,2022-08-10 22:07:26,39.7432,98.5174,75.61,63,9,1.79,clear sky
179,Plettenberg Bay,ZA,2022-08-10 22:07:26,-34.0527,23.3716,57.16,87,100,3.47,overcast clouds
180,Saint-Philippe,RE,2022-08-10 22:02:03,-21.3585,55.7679,65.79,79,58,15.55,light rain
181,Molchanovo,RU,2022-08-10 22:07:27,57.5817,83.7692,59.31,96,42,4.81,scattered clouds
182,Kungurtug,RU,2022-08-10 22:07:27,50.5994,97.5228,46.36,95,99,1.7,overcast clouds
183,Lugovoy,KZ,2022-08-10 22:04:04,42.9472,72.7644,66.74,43,1,2.59,clear sky
184,Sitka,US,2022-08-10 22:03:01,57.0531,-135.33,60.69,77,100,4.61,overcast clouds
185,Yarmouth,US,2022-08-10 22:07:28,41.7057,-70.2286,75.34,83,75,6.91,broken clouds
186,Palembang,ID,2022-08-10 22:07:28,-2.9167,104.7458,78.89,89,20,2.3,few clouds
187,Mbini,GQ,2022-08-10 22:07:28,1.574,9.6134,76.35,83,86,9.33,overcast clouds
188,Qui Nhon,VN,2022-08-10 22:07:29,13.7667,109.2333,80.17,75,100,7.67,heavy intensity rain
189,Tiksi,RU,2022-08-10 22:01:57,71.6872,128.8694,51.73,75,10,6.24,clear sky
190,Rocha,UY,2022-08-10 22:01:26,-34.4833,-54.3333,45.52,88,56,5.93,broken clouds
191,Itarema,BR,2022-08-10 22:01:54,-2.9248,-39.9167,77.34,79,5,16.49,clear sky
192,Pandan,PH,2022-08-10 22:07:29,14.0453,124.1694,79.25,81,100,2.91,overcast clouds
193,San Joaquin,US,2022-08-10 22:04:43,37.9333,-121.3011,90.0,35,0,5.84,clear sky
194,Kavieng,PG,2022-08-10 22:02:44,-2.5744,150.7967,80.08,78,99,3.2,light rain
195,Deder,ET,2022-08-10 22:07:30,9.3167,41.45,53.92,81,92,6.26,overcast clouds
196,Salinopolis,BR,2022-08-10 22:03:17,-0.6136,-47.3561,79.75,79,82,11.88,broken clouds
197,Ambositra,MG,2022-08-10 22:07:30,-20.5167,47.25,50.31,79,100,8.41,overcast clouds
198,Lata,PT,2022-08-10 22:02:00,40.1629,-8.3327,62.29,94,0,1.81,clear sky
199,Rio Gallegos,AR,2022-08-10 22:07:31,-51.6226,-69.2181,40.51,85,100,7.78,overcast clouds
200,Lorengau,PG,2022-08-10 22:04:48,-2.0226,147.2712,81.88,77,98,6.96,overcast clouds
201,Ostrovnoy,RU,2022-08-10 22:07:31,68.0531,39.5131,58.87,69,100,23.53,overcast clouds
202,Sungairaya,ID,2022-08-10 22:07:31,0.7,108.9,77.83,89,99,4.41,overcast clouds
203,Sarangani,PH,2022-08-10 22:07:32,5.4033,125.4636,82.24,72,33,2.1,scattered clouds
204,Sidney,AU,2022-08-10 22:04:43,-33.8679,151.2073,52.39,91,75,4.61,broken clouds
205,Pevek,RU,2022-08-10 22:02:16,69.7008,170.3133,39.7,92,99,4.38,overcast clouds
206,Kodiak,US,2022-08-10 22:00:16,57.79,-152.4072,52.12,98,100,6.22,light rain
207,Huangnihe,CN,2022-08-10 22:07:32,43.5583,128.0239,64.15,94,100,6.02,moderate rain
208,Meleuz,RU,2022-08-10 22:06:23,52.9667,55.9167,65.35,71,30,2.35,scattered clouds
209,Sorkjosen,NO,2022-08-10 22:07:33,69.8,20.9333,55.4,94,40,3.44,light rain
210,Bathsheba,BB,2022-08-10 22:03:57,13.2167,-59.5167,79.41,94,40,5.75,scattered clouds
211,Cayenne,GF,2022-08-10 22:07:33,4.9333,-52.3333,84.24,1,48,3.44,scattered clouds
212,Peniche,PT,2022-08-10 22:03:14,39.3558,-9.3811,68.29,89,0,3.42,clear sky
213,Gewane,ET,2022-08-10 22:07:34,10.1664,40.6453,80.08,51,100,15.08,overcast clouds
214,Bilisht,AL,2022-08-10 22:07:34,40.6275,20.99,60.94,67,90,1.52,overcast clouds
215,Olafsvik,IS,2022-08-10 21:58:03,64.8945,-23.7142,48.47,79,94,6.67,overcast clouds
216,Meulaboh,ID,2022-08-10 22:02:26,4.1363,96.1285,75.96,88,75,3.69,broken clouds
217,Zaranj,AF,2022-08-10 22:07:35,30.9667,61.8833,85.06,18,3,34.9,clear sky
218,Malibu,US,2022-08-10 22:07:35,34.005,-118.8101,102.42,50,9,6.82,clear sky
219,Zaysan,KZ,2022-08-10 22:07:36,47.4667,84.8667,67.23,53,25,7.58,scattered clouds
220,Middletown,US,2022-08-10 22:02:40,39.5151,-84.3983,82.74,72,75,28.01,broken clouds
221,Boa Vista,BR,2022-08-10 22:07:36,2.8197,-60.6733,89.58,51,40,8.05,scattered clouds
222,Elizabeth City,US,2022-08-10 22:07:36,36.2946,-76.2511,95.02,54,20,10.36,few clouds
223,College,US,2022-08-10 22:07:37,64.8569,-147.8028,62.08,51,40,4.61,scattered clouds
224,Gamba,GA,2022-08-10 22:07:37,-2.65,10.0,69.4,93,17,5.55,few clouds
225,Bilibino,RU,2022-08-10 22:02:50,68.0546,166.4372,66.63,71,17,4.52,few clouds
226,Sidi Ali,DZ,2022-08-10 22:02:49,36.0998,0.4206,88.21,36,0,7.92,clear sky
227,Luderitz,NA,2022-08-10 22:01:52,-26.6481,15.1594,57.09,65,38,8.16,scattered clouds
228,Gat,IL,2022-08-10 22:03:11,31.61,34.7642,79.48,100,2,2.66,clear sky
229,Port Elizabeth,ZA,2022-08-10 22:02:17,-33.918,25.5701,55.31,94,82,1.99,broken clouds
230,Campbell River,CA,2022-08-10 22:07:38,50.0163,-125.2446,74.44,77,46,8.14,scattered clouds
231,Pangnirtung,CA,2022-08-10 22:01:46,66.1451,-65.7125,47.79,74,56,2.68,broken clouds
232,Veraval,IN,2022-08-10 22:07:38,20.9,70.3667,80.42,91,100,21.47,overcast clouds
233,Berlevag,NO,2022-08-10 22:03:21,70.8578,29.0864,58.8,88,100,10.36,light intensity drizzle
234,Jind,IN,2022-08-10 22:07:39,29.3167,76.3167,85.98,63,38,8.37,scattered clouds
235,Husavik,IS,2022-08-10 22:02:58,66.0449,-17.3389,44.85,86,96,3.31,overcast clouds
236,Niquero,CU,2022-08-10 22:07:39,20.0431,-77.5828,87.78,60,9,5.41,clear sky
237,Grindavik,IS,2022-08-10 22:04:25,63.8424,-22.4338,50.47,87,75,9.22,broken clouds
238,Geraldton,AU,2022-08-10 22:07:40,-28.7667,114.6,39.61,93,0,4.61,clear sky
239,Ambon,ID,2022-08-10 22:07:40,-3.6954,128.1814,73.54,94,40,8.05,scattered clouds
240,Airai,TL,2022-08-10 22:02:25,-8.9266,125.4092,56.95,62,50,2.1,scattered clouds
241,Namibe,AO,2022-08-10 22:02:33,-15.1961,12.1522,61.79,87,30,5.08,scattered clouds
242,Esperance,AU,2022-08-10 22:01:50,-33.8667,121.9,56.53,73,69,19.64,broken clouds
243,Urumqi,CN,2022-08-10 22:07:34,43.801,87.6005,68.95,68,40,4.47,scattered clouds
244,Tiarei,PF,2022-08-10 22:02:02,-17.5333,-149.3333,80.62,73,73,11.68,light rain
245,Moses Lake,US,2022-08-10 22:07:41,47.1301,-119.2781,99.88,33,0,6.91,clear sky
246,Korla,CN,2022-08-10 22:07:42,41.7597,86.1469,86.68,26,44,14.97,scattered clouds
247,Paita,PE,2022-08-10 22:07:42,-5.0892,-81.1144,65.43,81,31,17.4,scattered clouds
248,Fortuna,US,2022-08-10 22:01:54,40.5982,-124.1573,75.92,68,40,16.11,scattered clouds
249,Bengkulu,ID,2022-08-10 22:02:15,-3.8004,102.2655,74.73,87,39,3.58,scattered clouds
250,Hovd,MN,2022-08-10 22:04:08,48.0056,91.6419,68.34,35,100,4.56,overcast clouds
251,Fairbanks,US,2022-08-10 22:03:56,64.8378,-147.7164,62.1,51,0,4.61,clear sky
252,Nabire,ID,2022-08-10 22:07:43,-3.3667,135.4833,75.51,87,33,3.38,scattered clouds
253,Pemangkat,ID,2022-08-10 22:07:43,1.1667,108.9667,77.95,87,100,3.8,overcast clouds
254,Hamilton,US,2022-08-10 22:00:11,39.1834,-84.5333,82.81,74,90,3.0,overcast clouds
255,Iquitos,PE,2022-08-10 22:05:03,-3.7481,-73.2472,80.64,83,75,3.44,broken clouds
256,Puerto Suarez,BO,2022-08-10 22:07:44,-18.95,-57.8,60.51,47,0,3.67,clear sky
257,Hobyo,SO,2022-08-10 22:03:36,5.3505,48.5268,76.48,80,47,22.32,scattered clouds
258,Aksarka,RU,2022-08-10 22:07:44,66.5606,67.7975,47.57,74,35,4.99,scattered clouds
259,Bilma,NE,2022-08-10 22:04:11,18.6853,12.9164,99.77,14,70,19.28,broken clouds
260,Barra Dos Coqueiros,BR,2022-08-10 22:07:44,-10.9089,-37.0386,75.22,83,0,4.61,clear sky
261,Natchitoches,US,2022-08-10 22:07:45,31.7668,-93.1335,88.65,79,0,8.05,clear sky
262,Qaqortoq,GL,2022-08-10 22:03:18,60.7167,-46.0333,44.08,90,100,6.64,moderate rain
263,Port-Cartier,CA,2022-08-10 22:07:45,50.0334,-66.8654,62.74,72,5,7.87,clear sky
264,Santa Adelia,BR,2022-08-10 22:07:46,-21.2428,-48.8042,55.49,57,4,15.1,clear sky
265,Saint-Louis,SN,2022-08-10 22:07:46,16.3333,-15.0,85.55,58,97,20.07,overcast clouds
266,Comodoro Rivadavia,AR,2022-08-10 22:07:46,-45.8667,-67.5,58.86,38,0,13.8,clear sky
267,Angoram,PG,2022-08-10 22:04:58,-4.0625,144.0661,74.59,98,100,3.0,overcast clouds
268,Belaya Gora,RU,2022-08-10 22:01:58,68.5333,146.4167,66.24,58,70,1.54,broken clouds
269,Morant Bay,JM,2022-08-10 22:07:47,17.8815,-76.4093,89.71,73,16,12.26,few clouds
270,Torbay,CA,2022-08-10 22:00:09,47.6666,-52.7314,58.57,85,100,11.01,overcast clouds
271,Senador Guiomard,BR,2022-08-10 22:07:47,-10.1522,-67.7392,76.75,45,8,6.93,clear sky
272,Zamora,EC,2022-08-10 22:07:48,-4.0692,-78.9567,68.38,96,95,2.57,light rain
273,Copperas Cove,US,2022-08-10 22:02:48,31.1241,-97.9031,82.71,83,75,16.11,light rain
274,Chickasha,US,2022-08-10 22:07:48,35.0526,-97.9364,99.75,38,0,9.22,clear sky
275,Beloha,MG,2022-08-10 22:07:49,-25.1667,45.05,65.07,62,50,8.93,scattered clouds
276,Vestmannaeyjar,IS,2022-08-10 22:07:49,63.4427,-20.2734,51.21,82,99,10.63,overcast clouds
277,Mar Del Plata,AR,2022-08-10 22:01:50,-38.0023,-57.5575,53.94,64,99,1.99,overcast clouds
278,Tecoanapa,MX,2022-08-10 22:07:49,16.5167,-98.75,86.22,65,94,10.87,overcast clouds
279,Point Fortin,TT,2022-08-10 22:07:50,10.1833,-61.6833,83.89,77,100,12.33,overcast clouds
280,Vao,NC,2022-08-10 22:05:13,-22.6667,167.4833,67.42,56,30,20.8,scattered clouds
281,Kailua,US,2022-08-10 22:07:50,21.4022,-157.7394,89.58,67,20,12.66,few clouds
282,Southbridge,US,2022-08-10 22:03:09,42.0751,-72.0334,83.35,61,55,4.65,broken clouds
283,Pacific Grove,US,2022-08-10 22:03:50,36.6177,-121.9166,84.54,70,0,11.5,clear sky
284,Georgetown,MY,2022-08-10 22:01:33,5.4112,100.3354,81.9,88,20,0.0,few clouds
285,Anadyr,RU,2022-08-10 21:58:32,64.75,177.4833,64.9,68,0,11.18,clear sky
286,Havre-Saint-Pierre,CA,2022-08-10 22:07:51,50.2334,-63.5986,62.47,78,3,8.39,clear sky
287,Padang,ID,2022-08-10 22:03:29,-0.9492,100.3543,77.2,83,25,2.91,scattered clouds
288,Walvis Bay,NA,2022-08-10 22:03:32,-22.9575,14.5053,54.09,90,2,8.97,clear sky
289,Cartagena,CO,2022-08-10 22:04:13,10.3997,-75.5144,85.62,74,75,11.5,broken clouds
290,Cleveland,US,2022-08-10 22:03:04,41.4995,-81.6954,80.31,56,0,9.22,clear sky
291,Vilhena,BR,2022-08-10 22:07:52,-12.7406,-60.1458,68.25,52,81,2.95,broken clouds
292,Ballina,AU,2022-08-10 22:07:52,-28.8667,153.5667,53.02,94,100,4.99,overcast clouds
293,Otjiwarongo,NA,2022-08-10 22:07:52,-20.4637,16.6477,57.67,23,0,3.0,clear sky
294,Yarada,IN,2022-08-10 22:07:53,17.65,83.2667,82.87,75,100,14.92,overcast clouds
295,Rawson,AR,2022-08-10 22:07:53,-43.3002,-65.1023,52.68,49,100,5.37,overcast clouds
296,Smoky Lake,CA,2022-08-10 22:07:53,54.1169,-112.4686,78.26,44,0,10.6,clear sky
297,Chirongui,YT,2022-08-10 22:07:54,-12.9319,45.1483,69.73,77,11,10.4,light rain
298,Provideniya,RU,2022-08-10 22:02:20,64.3833,-173.3,50.11,93,0,4.47,clear sky
299,Carnarvon,AU,2022-08-10 22:02:29,-24.8667,113.6333,55.83,56,0,17.16,clear sky
300,Cutervo,PE,2022-08-10 22:07:54,-6.379,-78.8157,56.84,76,85,5.59,light rain
301,Guerrero Negro,MX,2022-08-10 22:02:13,27.9769,-114.0611,78.15,63,76,14.34,broken clouds
302,Rorvik,NO,2022-08-10 22:07:55,64.8621,11.2373,57.31,94,75,25.32,moderate rain
303,Praya,CV,2022-08-10 22:03:13,14.9215,-23.5087,80.06,82,87,8.79,overcast clouds
304,Naberera,TZ,2022-08-10 22:07:55,-4.2,36.9333,56.55,95,66,8.01,broken clouds
305,Teeli,RU,2022-08-10 22:07:56,51.0333,90.2333,56.37,83,95,2.19,overcast clouds
306,Namatanai,PG,2022-08-10 22:04:49,-3.6667,152.4333,80.78,79,80,3.6,light rain
307,Killybegs,IE,2022-08-10 22:07:56,54.6333,-8.45,59.23,80,6,1.52,clear sky
308,Longhua,CN,2022-08-10 22:07:56,23.6137,114.1919,75.96,97,100,2.55,overcast clouds
309,Linxia,CN,2022-08-10 22:07:57,35.6003,103.2064,68.09,88,99,2.59,overcast clouds
310,Tasiilaq,GL,2022-08-10 22:01:43,65.6145,-37.6368,41.16,77,100,6.22,overcast clouds
311,Belyy Yar,RU,2022-08-10 22:02:04,53.6039,91.3903,56.86,76,0,2.24,clear sky
312,Guerrero,MX,2022-08-10 22:07:57,17.6667,-100.0,75.27,81,100,1.68,overcast clouds
313,Shenjiamen,CN,2022-08-10 22:07:58,29.9576,122.298,81.59,87,46,18.34,scattered clouds
314,Ode,NG,2022-08-10 22:07:58,7.7899,5.7117,70.23,97,100,5.97,overcast clouds
315,Sovetskiy,RU,2022-08-10 22:07:58,61.3614,63.5842,64.17,53,93,9.13,overcast clouds
316,Batemans Bay,AU,2022-08-10 22:03:35,-35.7167,150.1833,53.1,79,100,3.91,light rain
317,Homer,US,2022-08-10 22:07:59,59.6425,-151.5483,61.77,72,0,3.44,clear sky
318,Russell,US,2022-08-10 22:07:59,32.3502,-85.1999,79.38,45,98,2.73,light rain
319,Aklavik,CA,2022-08-10 22:02:53,68.2191,-135.0107,60.21,36,37,11.18,scattered clouds
320,Toora-Khem,RU,2022-08-10 22:08:00,52.4675,96.11,48.74,87,2,1.05,clear sky
321,Ures,MX,2022-08-10 22:08:00,29.4333,-110.4,94.89,40,29,8.93,scattered clouds
322,Ozinki,RU,2022-08-10 22:08:00,51.1786,49.6769,78.93,38,77,8.57,broken clouds
323,Saint Augustine,US,2022-08-10 22:08:01,29.8947,-81.3145,92.14,77,100,13.47,overcast clouds
324,Dolores Hidalgo,MX,2022-08-10 22:08:01,21.1561,-100.9308,81.79,31,86,20.18,overcast clouds
325,Bosaso,SO,2022-08-10 22:08:01,11.2842,49.1816,90.93,41,94,17.4,overcast clouds
326,Tigil,RU,2022-08-10 22:03:37,57.8,158.6667,58.44,88,100,4.54,overcast clouds
327,Saint George,US,2022-08-10 22:05:55,37.1041,-113.5841,91.44,40,0,23.02,clear sky
328,Orlik,RU,2022-08-10 22:02:55,52.5178,99.825,46.36,83,17,1.16,few clouds
329,Port Augusta,AU,2022-08-10 22:02:25,-32.5,137.7667,47.35,72,28,9.86,scattered clouds
330,Arlit,NE,2022-08-10 22:08:02,18.7369,7.3853,95.29,27,16,14.05,few clouds
331,Frankfort,ZA,2022-08-10 22:03:09,-27.2667,28.4833,52.93,31,0,3.42,clear sky
332,Pundaguitan,PH,2022-08-10 22:08:03,6.3711,126.1689,82.13,71,42,2.66,scattered clouds
333,Aktau,KZ,2022-08-10 22:08:03,43.65,51.2,72.18,35,0,11.25,clear sky
334,Aykhal,RU,2022-08-10 22:08:03,66.0,111.5,58.48,82,100,4.59,overcast clouds
335,Vestmanna,FO,2022-08-10 22:01:49,62.1564,-7.1664,50.92,87,75,18.41,broken clouds
336,Gizo,SB,2022-08-10 22:08:04,-8.103,156.8419,81.75,75,46,6.24,scattered clouds
337,Derzhavinsk,KZ,2022-08-10 22:04:28,51.1,66.3167,67.24,53,65,9.19,broken clouds
338,Hudson Bay,CA,2022-08-10 22:08:04,52.85,-102.3842,73.71,36,3,4.38,clear sky
339,Romny,UA,2022-08-10 22:08:05,50.751,33.4747,63.61,90,100,13.47,overcast clouds
340,Palmer,US,2022-08-10 22:08:05,42.1584,-72.3287,82.99,50,20,10.36,few clouds
341,Aquin,HT,2022-08-10 22:08:06,18.2833,-73.4,82.85,75,70,3.62,broken clouds
342,Nazilli,TR,2022-08-10 22:08:06,37.9163,28.3223,74.79,69,25,3.91,scattered clouds
343,Hervey Bay,AU,2022-08-10 22:08:06,-25.2986,152.8535,63.77,65,5,10.42,clear sky
344,Avera,US,2022-08-10 22:03:09,33.194,-82.5271,90.91,39,94,4.74,overcast clouds
345,Kilindoni,TZ,2022-08-10 22:01:44,-7.9139,39.6668,76.01,76,25,15.48,scattered clouds
346,Jamame,SO,2022-08-10 22:08:07,0.0722,42.7506,74.97,80,100,14.05,light rain
347,Flinders,AU,2022-08-10 22:02:47,-34.5833,150.8552,57.38,86,89,1.99,overcast clouds
348,Alyangula,AU,2022-08-10 22:08:07,-13.8483,136.4192,66.07,100,40,0.0,scattered clouds
349,Pallasovka,RU,2022-08-10 22:08:08,50.05,46.8833,80.62,35,63,9.48,broken clouds
350,Kruisfontein,ZA,2022-08-10 22:01:36,-34.0033,24.7314,50.88,86,99,4.59,overcast clouds
351,Coihaique,CL,2022-08-10 22:02:03,-45.5752,-72.0662,38.41,99,100,4.52,light rain
352,Casablanca,MA,2022-08-10 22:06:44,33.5928,-7.6192,73.62,69,0,4.0,clear sky
353,Manaure,CO,2022-08-10 22:08:08,11.7751,-72.4445,87.76,58,100,20.36,overcast clouds
354,Yeppoon,AU,2022-08-10 22:08:09,-23.1333,150.7333,58.78,82,26,11.18,scattered clouds
355,Tomatlan,MX,2022-08-10 22:03:08,19.9333,-105.25,88.97,58,87,7.11,overcast clouds
356,Koygorodok,RU,2022-08-10 22:08:09,60.445,50.9968,51.64,97,100,8.93,overcast clouds
357,Sakakah,SA,2022-08-10 22:08:10,29.9697,40.2064,93.6,25,0,8.25,clear sky
358,Mehamn,NO,2022-08-10 22:04:10,71.0357,27.8492,57.11,94,40,3.44,scattered clouds
359,Xiazhen,CN,2022-08-10 22:08:10,34.8022,117.1117,75.69,91,96,2.84,overcast clouds
360,Karratha,AU,2022-08-10 22:04:17,-20.7377,116.8463,59.43,31,0,13.2,clear sky
361,Nagorsk,RU,2022-08-10 22:08:10,59.3172,50.8078,52.16,95,60,6.33,broken clouds
362,Port Lincoln,AU,2022-08-10 22:00:09,-34.7333,135.8667,49.14,82,55,25.52,broken clouds
363,Goderich,CA,2022-08-10 22:03:49,43.7501,-81.7165,75.9,64,0,4.92,clear sky
364,Izumo,JP,2022-08-10 22:08:11,35.3667,132.7667,82.29,78,0,4.61,clear sky
365,Galashki,RU,2022-08-10 22:08:11,43.1136,44.9894,61.75,68,0,5.57,clear sky
366,Epanomi,GR,2022-08-10 22:08:12,40.4264,22.9286,86.34,43,40,4.61,scattered clouds
367,Klaksvik,FO,2022-08-10 22:02:08,62.2266,-6.589,52.72,84,25,21.79,scattered clouds
368,Abu Dhabi,AE,2022-08-10 22:00:08,24.4667,54.3667,90.97,85,31,5.44,scattered clouds
369,Faanui,PF,2022-08-10 22:01:38,-16.4833,-151.75,77.38,70,0,4.68,clear sky
370,Ketchikan,US,2022-08-10 22:05:10,55.3422,-131.6461,73.87,46,0,13.8,clear sky
371,Asau,RO,2022-08-10 22:02:58,46.4333,26.4,60.28,88,67,5.26,light rain
372,Westport,US,2022-08-10 22:05:07,41.1415,-73.3579,88.45,61,0,5.75,clear sky
373,Nikolskoye,RU,2022-08-10 22:02:16,59.7035,30.7861,59.88,78,39,3.8,scattered clouds
374,Krapina,HR,2022-08-10 22:08:13,46.1608,15.8789,63.14,56,26,3.96,scattered clouds
375,Porto Walter,BR,2022-08-10 22:08:13,-8.2686,-72.7439,76.3,69,100,3.53,overcast clouds
376,Konakovo,RU,2022-08-10 22:08:13,56.7,36.7667,53.78,79,3,4.29,clear sky
377,Bridgetown,BB,2022-08-10 22:07:29,13.1,-59.6167,79.29,94,40,5.75,scattered clouds
378,Ust-Maya,RU,2022-08-10 22:08:14,60.4167,134.5333,54.41,94,100,2.75,light rain
379,Svetlyy,RU,2022-08-10 22:08:14,54.675,20.1347,53.65,87,22,4.83,few clouds
380,Pilar,BR,2022-08-10 22:03:37,-9.5972,-35.9567,73.33,90,3,3.94,clear sky
381,Talnakh,RU,2022-08-10 22:03:50,69.4865,88.3972,47.21,80,100,6.82,overcast clouds
382,Jaicos,BR,2022-08-10 22:08:15,-7.3592,-41.1378,80.83,32,6,5.93,clear sky
383,Madison,US,2022-08-10 22:08:15,34.7334,-86.5667,83.34,85,40,3.44,scattered clouds
384,Longyearbyen,SJ,2022-08-10 22:01:34,78.2186,15.6401,48.04,71,75,9.22,broken clouds
385,Buala,SB,2022-08-10 22:03:14,-8.145,159.5921,82.04,74,56,6.51,broken clouds
386,Inuvik,CA,2022-08-10 22:08:16,68.3499,-133.7218,57.76,41,76,9.08,broken clouds
387,Baker City,US,2022-08-10 22:08:16,44.7749,-117.8344,85.59,39,20,4.61,few clouds
388,Grand Gaube,MU,2022-08-10 22:04:23,-20.0064,57.6608,68.38,62,92,10.0,overcast clouds
389,Ahipara,NZ,2022-08-10 22:02:42,-35.1667,173.1667,55.33,73,94,7.27,overcast clouds
390,Sieradz,PL,2022-08-10 22:08:17,51.5958,18.7302,54.05,61,100,4.99,overcast clouds
391,Trelew,AR,2022-08-10 22:08:17,-43.249,-65.3051,52.83,45,100,5.41,overcast clouds
392,Zhangye,CN,2022-08-10 22:02:50,38.9342,100.4517,76.55,62,8,4.65,clear sky
393,Brandon,US,2022-08-10 22:08:17,27.9378,-82.2859,94.14,67,40,4.61,scattered clouds
394,Esna,EG,2022-08-10 22:08:18,25.2934,32.554,91.69,26,13,15.32,few clouds
395,Kirakira,SB,2022-08-10 22:08:18,-10.4544,161.9205,80.78,82,39,9.01,light rain
396,Cururupu,BR,2022-08-10 22:01:47,-1.8283,-44.8683,75.65,88,16,3.85,few clouds
397,Merauke,ID,2022-08-10 22:01:12,-8.4667,140.3333,76.75,84,63,14.79,broken clouds
398,Henties Bay,NA,2022-08-10 22:04:09,-22.116,14.2845,53.87,92,0,9.24,clear sky
399,Yerbogachen,RU,2022-08-10 22:03:55,61.2767,108.0108,55.4,87,99,3.76,overcast clouds
400,Narsaq,GL,2022-08-10 22:03:10,60.9167,-46.05,48.42,88,100,6.11,moderate rain
401,Chapais,CA,2022-08-10 22:08:19,49.7834,-74.8492,72.72,48,39,9.15,scattered clouds
402,Makokou,GA,2022-08-10 22:08:19,0.5738,12.8642,71.65,81,40,3.89,scattered clouds
403,Hwange,ZW,2022-08-10 22:08:20,-18.3693,26.5019,65.17,37,0,2.19,clear sky
404,Ormara,PK,2022-08-10 22:08:20,25.2088,64.6357,83.98,73,100,11.97,overcast clouds
405,Tortoli,IT,2022-08-10 22:08:20,39.9256,9.6572,76.62,72,5,2.93,clear sky
406,Igarka,RU,2022-08-10 22:08:21,67.4667,86.5833,47.75,92,100,8.28,overcast clouds
407,Baiao,BR,2022-08-10 22:08:21,-2.7906,-49.6717,81.9,50,74,1.25,broken clouds
408,Winnemucca,US,2022-08-10 22:02:21,40.973,-117.7357,86.05,37,20,5.75,few clouds
409,Roebourne,AU,2022-08-10 22:01:47,-20.7833,117.1333,59.29,32,0,13.82,clear sky
410,Portland,US,2022-08-10 22:07:27,45.5234,-122.6762,78.53,58,100,5.99,overcast clouds
411,Mocuba,MZ,2022-08-10 22:08:22,-16.8392,36.9856,64.17,89,0,2.66,clear sky
412,Magadan,RU,2022-08-10 22:08:22,59.5667,150.8,58.53,88,100,7.61,overcast clouds
413,Talcahuano,CL,2022-08-10 22:07:00,-36.7167,-73.1167,53.28,62,0,8.05,clear sky
414,Kokopo,PG,2022-08-10 22:08:23,-4.352,152.2633,78.71,80,85,2.28,overcast clouds
415,Daito,JP,2022-08-10 22:08:23,34.7,135.6167,84.2,76,97,2.82,overcast clouds
416,Saint-Francois,FR,2022-08-10 22:05:55,46.4154,3.9054,65.68,52,0,2.3,clear sky
417,Sakaiminato,JP,2022-08-10 22:08:23,35.55,133.2333,82.33,82,66,7.11,light rain
418,Canutama,BR,2022-08-10 22:08:24,-6.5339,-64.3831,78.03,73,72,2.08,broken clouds
419,Volary,CZ,2022-08-10 22:08:24,48.9088,13.8866,60.08,65,13,2.06,few clouds
420,Dunedin,NZ,2022-08-10 21:58:23,-45.8742,170.5036,41.81,83,98,1.01,overcast clouds
421,Alipur,PK,2022-08-10 22:08:24,29.3846,70.9116,93.99,47,0,4.88,clear sky
422,Ulaanbaatar,MN,2022-08-10 22:01:38,47.9077,106.8832,54.57,97,99,5.37,overcast clouds
423,Batagay-Alyta,RU,2022-08-10 22:08:25,67.8006,130.4114,62.82,56,26,1.77,scattered clouds
424,Kualakapuas,ID,2022-08-10 22:08:25,-3.0091,114.3876,73.26,96,100,2.19,overcast clouds
425,Hirado,JP,2022-08-10 22:08:26,33.3597,129.5531,85.39,84,100,11.77,overcast clouds
426,Sur,OM,2022-08-10 22:04:59,22.5667,59.5289,88.23,57,100,12.37,overcast clouds
427,Iguape,BR,2022-08-10 22:05:25,-24.7081,-47.5553,60.37,91,72,24.29,light rain
428,Searcy,US,2022-08-10 22:05:13,35.2506,-91.7363,91.98,64,0,8.01,clear sky
429,Tecamac,MX,2022-08-10 22:08:26,19.7333,-98.9667,76.98,34,72,15.82,broken clouds
430,Brae,GB,2022-08-10 22:08:27,60.3964,-1.353,55.15,94,100,16.31,light rain
431,Srednekolymsk,RU,2022-08-10 22:08:27,67.45,153.6833,70.74,53,33,5.32,scattered clouds
432,La Orilla,MX,2022-08-10 22:08:27,17.9833,-102.2333,86.41,66,100,9.57,overcast clouds
433,Parfino,RU,2022-08-10 22:08:28,57.9731,31.6481,53.71,74,5,1.95,clear sky
434,Muros,ES,2022-08-10 22:08:28,42.7762,-9.0603,67.08,92,45,2.75,scattered clouds
435,Surgut,RU,2022-08-10 22:08:28,61.25,73.4167,57.38,76,0,7.0,clear sky
436,Joensuu,FI,2022-08-10 22:08:29,62.6012,29.7632,64.89,68,0,4.61,clear sky
437,Kabo,CF,2022-08-10 22:08:29,7.6994,18.629,70.77,95,100,1.7,overcast clouds
438,Sobolevo,RU,2022-08-10 22:08:29,54.4299,31.8996,61.66,71,98,7.63,overcast clouds
439,Leningradskiy,RU,2022-08-10 22:03:56,69.3833,178.4167,45.79,85,73,2.37,broken clouds
440,Cabo San Lucas,MX,2022-08-10 21:58:22,22.8909,-109.9124,95.61,64,75,6.91,broken clouds
441,Chake Chake,TZ,2022-08-10 22:08:30,-5.2459,39.7666,72.66,85,33,9.06,scattered clouds
442,Silale,LT,2022-08-10 22:08:30,55.4906,22.1814,56.19,70,17,5.08,few clouds
443,Tiznit,MA,2022-08-10 22:08:30,29.5833,-9.5,70.21,57,0,1.77,clear sky
444,Milkovo,RU,2022-08-10 22:08:31,54.7167,158.6167,57.04,84,97,0.65,overcast clouds
445,Yeniseysk,RU,2022-08-10 22:08:31,58.4497,92.1703,53.91,94,3,2.44,clear sky
446,Port-Gentil,GA,2022-08-10 22:02:09,-0.7193,8.7815,75.16,83,75,12.66,broken clouds
447,Verkhnyaya Inta,RU,2022-08-10 22:05:05,65.9811,60.3094,49.68,71,93,6.64,overcast clouds
448,Limulunga,ZM,2022-08-10 22:08:32,-15.0969,23.1376,59.83,24,0,5.39,clear sky
449,Saint-Joseph,RE,2022-08-10 22:02:38,-21.3667,55.6167,64.78,76,27,14.99,light rain
450,Kaka,TM,2022-08-10 22:08:32,37.3482,59.6143,77.86,23,3,5.97,clear sky
451,Grand-Lahou,CI,2022-08-10 22:08:33,5.1367,-5.0242,74.89,87,99,10.29,overcast clouds
452,Kaura Namoda,NG,2022-08-10 22:08:33,12.5898,6.5779,80.08,71,66,8.3,broken clouds
453,Victor Harbor,AU,2022-08-10 22:08:33,-35.5667,138.6167,48.69,84,8,13.89,clear sky
454,Smithers,CA,2022-08-10 22:00:16,54.7804,-127.1743,87.39,25,0,1.86,clear sky
455,Kerouane,GN,2022-08-10 22:08:34,9.2667,-9.0167,70.95,97,93,2.89,moderate rain
456,Mumford,GH,2022-08-10 22:08:34,5.2618,-0.759,72.7,89,6,10.94,clear sky
457,Adwa,ET,2022-08-10 22:08:34,14.1646,38.8955,60.8,95,97,3.44,light rain
458,Raahe,FI,2022-08-10 22:08:35,64.6833,24.4833,64.49,83,100,19.28,overcast clouds
459,Sciacca,IT,2022-08-10 22:08:35,37.5082,13.0881,75.04,64,19,3.85,few clouds
460,Preobrazheniye,RU,2022-08-10 22:03:07,42.9019,133.9064,69.8,85,93,7.4,overcast clouds
461,Chanika,TZ,2022-08-10 22:08:35,-5.4167,38.0167,62.13,99,56,2.26,broken clouds
462,Pangody,RU,2022-08-10 22:08:36,65.85,74.4859,46.09,80,14,2.42,few clouds
463,San Juan,AR,2022-08-10 22:07:24,-31.5375,-68.5364,62.64,19,6,3.69,clear sky
464,Pergamino,AR,2022-08-10 22:08:36,-33.89,-60.5736,54.91,60,83,1.01,broken clouds
465,Caohe,CN,2022-08-10 22:08:36,30.2297,115.4335,81.63,69,86,3.56,overcast clouds
466,Raga,SS,2022-08-10 22:08:37,8.4596,25.678,70.7,97,100,5.41,overcast clouds
467,Cherskiy,RU,2022-08-10 22:02:27,68.75,161.3,62.35,61,0,2.46,clear sky
468,Vredendal,ZA,2022-08-10 22:08:37,-31.6683,18.5012,54.37,87,100,2.46,overcast clouds
469,Lundazi,ZM,2022-08-10 22:08:37,-12.2929,33.1782,59.58,55,0,6.62,clear sky
470,Okha,RU,2022-08-10 22:08:38,53.5739,142.9478,60.35,80,57,8.72,broken clouds
471,Jertih,MY,2022-08-10 22:08:38,5.7336,102.4897,75.2,92,100,3.96,overcast clouds
472,Kultuk,RU,2022-08-10 22:08:38,51.7208,103.6956,53.65,91,0,4.88,clear sky
473,Mindelo,CV,2022-08-10 22:08:39,16.8901,-24.9804,76.6,82,62,14.97,broken clouds
474,Diamantino,BR,2022-08-10 22:05:55,-14.4086,-56.4461,67.01,39,100,5.95,overcast clouds
475,Chalus,IR,2022-08-10 22:08:39,36.655,51.4204,77.81,79,13,1.28,few clouds
476,Sambava,MG,2022-08-10 22:08:39,-14.2667,50.1667,68.2,76,31,15.84,light rain
477,Hayden,US,2022-08-10 22:04:46,47.766,-116.7866,92.08,41,0,6.91,clear sky
478,Estevan,CA,2022-08-10 22:07:35,49.1334,-102.9842,71.94,32,88,10.04,overcast clouds
479,La Ciotat,FR,2022-08-10 22:08:40,43.1748,5.6045,78.82,77,9,4.36,clear sky
480,Diffa,NE,2022-08-10 22:08:40,13.3154,12.6113,84.72,56,79,2.91,broken clouds
481,Luoyang,CN,2022-08-10 22:08:41,34.6836,112.4536,72.97,91,79,1.95,broken clouds
482,Nemuro,JP,2022-08-10 22:05:11,43.3236,145.575,66.96,97,61,8.93,broken clouds
483,Namtsy,RU,2022-08-10 22:08:41,62.7161,129.6658,60.82,91,99,6.53,overcast clouds
484,Noumea,NC,2022-08-10 22:08:42,-22.2763,166.4572,70.0,99,79,15.68,broken clouds
485,Tsabong,BW,2022-08-10 22:08:42,-26.0217,22.401,63.81,21,0,10.45,clear sky
486,Souillac,MU,2022-08-10 21:58:33,-20.5167,57.5167,66.58,77,40,17.27,light rain
487,Mogocha,RU,2022-08-10 22:08:42,53.7333,119.7667,51.48,97,100,3.15,light rain
488,Tabuk,PH,2022-08-10 22:02:52,17.4189,121.4443,74.1,95,100,2.01,overcast clouds
489,Murashi,RU,2022-08-10 22:08:43,59.3999,48.9615,49.26,98,76,5.03,broken clouds
490,Nanortalik,GL,2022-08-10 21:58:34,60.1432,-45.2371,44.26,91,94,5.03,moderate rain
491,Mahon,ES,2022-08-10 22:04:44,39.8885,4.2658,81.16,69,0,3.44,clear sky
492,Novyy Urengoy,RU,2022-08-10 22:02:06,66.0833,76.6333,51.28,66,84,6.87,broken clouds
493,La Ronge,CA,2022-08-10 22:08:43,55.1001,-105.2842,64.45,46,16,7.38,few clouds
494,Kharar,IN,2022-08-10 22:08:44,30.7444,76.6478,77.65,91,91,5.99,moderate rain
495,Mecca,SA,2022-08-10 21:59:11,21.4267,39.8261,90.7,58,53,12.26,broken clouds
496,Honningsvag,NO,2022-08-10 22:08:44,70.9821,25.9704,55.15,94,75,9.22,broken clouds
497,Maneromango,TZ,2022-08-10 22:08:45,-7.1988,38.7848,63.82,96,48,2.01,scattered clouds
498,Caravelas,BR,2022-08-10 22:02:42,-17.7125,-39.2481,74.25,74,12,15.26,few clouds
499,Dubbo,AU,2022-08-10 22:08:45,-32.25,148.6167,50.13,76,100,8.05,moderate rain
500,Champerico,GT,2022-08-10 22:04:09,14.3,-91.9167,84.54,70,88,6.33,overcast clouds
501,Kulu,TR,2022-08-10 22:08:45,39.0951,33.0799,73.44,45,64,8.39,broken clouds
502,San Rafael,AR,2022-08-10 22:04:11,-34.6177,-68.3301,56.07,35,0,7.49,clear sky
503,Krasnyy Luch,UA,2022-08-10 22:08:46,48.1395,38.9371,74.66,32,31,6.04,scattered clouds
504,Kez,RU,2022-08-10 22:08:46,57.8979,53.7152,55.8,97,87,5.88,overcast clouds
505,Melfi,IT,2022-08-10 22:08:47,40.9965,15.6514,64.49,72,81,2.66,broken clouds
506,Mutsu,JP,2022-08-10 22:08:47,41.2894,141.2169,75.72,91,76,7.7,broken clouds
507,Chicholi,IN,2022-08-10 22:08:47,21.4667,79.6833,74.43,95,100,13.6,overcast clouds
508,Pafos,CY,2022-08-10 22:08:48,34.7667,32.4167,80.38,74,40,4.61,scattered clouds
509,Manyana,BW,2022-08-10 22:08:48,-23.4,21.7167,58.17,18,0,8.48,clear sky
510,Camana,PE,2022-08-10 22:03:56,-16.6228,-72.7111,61.72,78,6,4.32,clear sky
511,Touros,BR,2022-08-10 22:01:49,-5.1989,-35.4608,75.24,78,5,12.06,clear sky
512,Challans,FR,2022-08-10 22:08:48,46.8436,-1.8749,82.6,33,0,10.29,clear sky
513,High Rock,BS,2022-08-10 22:04:35,26.6208,-78.2833,84.18,75,0,14.56,clear sky
514,Nizhniy Odes,RU,2022-08-10 22:08:49,63.6445,54.856,50.63,95,100,7.7,light rain
515,Salamanca,ES,2022-08-10 22:08:49,40.8333,-6.0,75.99,53,28,8.81,scattered clouds
516,La Grande,US,2022-08-10 22:08:50,45.3246,-118.0877,91.24,37,98,10.09,overcast clouds
517,Lavrentiya,RU,2022-08-10 22:03:30,65.5833,-171.0,50.77,75,100,4.29,overcast clouds
518,Mvuma,ZW,2022-08-10 22:08:50,-19.2792,30.5283,55.62,59,0,6.17,clear sky
519,Kijang,KR,2022-08-10 22:08:50,35.2442,129.2139,79.74,90,100,9.66,overcast clouds
520,San Carlos De Bariloche,AR,2022-08-10 22:08:51,-41.1456,-71.3082,44.35,57,0,3.44,clear sky
521,Chebsara,RU,2022-08-10 22:08:51,59.2002,38.8356,50.95,81,8,2.8,clear sky
522,Acarau,BR,2022-08-10 22:02:23,-2.8856,-40.12,77.5,78,5,17.56,clear sky
523,Navirai,BR,2022-08-10 22:08:51,-23.065,-54.1906,53.06,80,98,6.26,overcast clouds
524,Rio Grande,BR,2022-08-10 22:03:35,-32.035,-52.0986,55.51,85,48,11.1,scattered clouds
525,Melo,UY,2022-08-10 22:08:52,-32.3667,-54.1833,47.53,85,22,7.16,few clouds
526,Lasa,IT,2022-08-10 22:03:47,46.6166,10.7002,63.36,90,33,2.3,scattered clouds
527,Kaabong,UG,2022-08-10 22:08:52,3.4836,34.1492,65.03,80,100,4.21,overcast clouds
528,Conceicao Das Alagoas,BR,2022-08-10 22:08:53,-19.9147,-48.3883,61.52,44,79,10.4,broken clouds
529,Shar,KZ,2022-08-10 22:03:09,49.5886,81.0453,67.78,65,72,12.24,broken clouds
530,Dong Hoi,VN,2022-08-10 22:04:18,17.4833,106.6,80.28,78,100,7.36,light rain
531,Chuy,UY,2022-08-10 22:02:42,-33.6971,-53.4616,48.15,86,5,5.59,clear sky
532,Gillette,US,2022-08-10 22:08:53,44.2911,-105.5022,97.81,15,0,4.61,clear sky
533,Wajid,SO,2022-08-10 22:08:54,3.8093,43.2471,72.5,73,69,20.8,broken clouds
534,Polovinnoye,RU,2022-08-10 22:08:54,54.7914,65.9864,61.32,92,11,7.29,few clouds
535,Salmas,IR,2022-08-10 22:08:54,38.1973,44.7653,70.47,49,0,3.6,clear sky
536,Pochutla,MX,2022-08-10 22:04:32,15.7432,-96.4661,87.82,64,94,6.71,overcast clouds
537,Nantucket,US,2022-08-10 22:08:55,41.2835,-70.0995,75.34,88,100,10.36,overcast clouds
538,Ixtapa,MX,2022-08-10 22:04:45,20.7,-105.2,83.43,65,100,6.91,overcast clouds
539,Kalmunai,LK,2022-08-10 22:08:55,7.4167,81.8167,78.04,79,96,1.28,overcast clouds
540,Lerdo,MX,2022-08-10 22:08:55,25.5333,-103.5333,93.07,24,75,10.36,broken clouds
541,Mingyue,CN,2022-08-10 22:08:56,43.1069,128.9217,65.35,94,100,1.92,overcast clouds
542,Lom,BG,2022-08-10 22:08:56,43.8139,23.2361,66.16,88,45,5.35,scattered clouds
543,Fort Nelson,CA,2022-08-10 22:08:56,58.8053,-122.7002,87.46,26,1,1.41,clear sky
544,Umred,IN,2022-08-10 22:08:57,20.85,79.3333,77.29,93,100,15.46,overcast clouds
545,Margate,GB,2022-08-10 22:02:46,51.3813,1.3862,69.31,88,1,4.0,clear sky
546,La Palma,US,2022-08-10 22:08:57,33.8464,-118.0467,102.81,44,0,10.36,clear sky
547,Ilebo,CD,2022-08-10 22:08:57,-4.3167,20.5833,75.85,29,3,0.78,clear sky
548,Mangrol,IN,2022-08-10 22:08:58,21.1167,70.1167,80.64,91,100,19.37,overcast clouds
549,Havoysund,NO,2022-08-10 22:01:19,70.9963,24.6622,55.63,92,100,3.62,overcast clouds
550,Solnechnyy,RU,2022-08-10 22:02:40,50.7214,136.6319,56.93,94,81,3.15,broken clouds
551,Woensdrecht,NL,2022-08-10 22:08:58,51.4163,4.337,73.92,73,2,4.61,clear sky
552,Coquimbo,CL,2022-08-10 22:03:07,-29.9533,-71.3436,58.69,71,89,4.79,overcast clouds
553,Marsa Matruh,EG,2022-08-10 22:08:59,31.3525,27.2453,77.86,73,0,10.25,clear sky
554,Semnan,IR,2022-08-10 22:08:59,35.5729,53.3971,78.8,48,9,6.55,clear sky
555,Hailar,CN,2022-08-10 22:08:59,49.2,119.7,57.83,75,100,7.02,moderate rain
556,Ekhabi,RU,2022-08-10 22:09:00,53.5102,142.9671,61.2,78,60,8.88,broken clouds
557,Araouane,ML,2022-08-10 22:09:00,18.9048,-3.5265,98.13,26,5,8.93,clear sky
558,Pemagatsel,BT,2022-08-10 22:09:00,27.0319,91.4266,61.29,94,13,4.63,few clouds
559,Saint-Pierre,RE,2022-08-10 22:02:39,-21.3393,55.4781,66.9,68,20,9.22,few clouds
560,Zhicheng,CN,2022-08-10 22:09:01,30.2956,111.5047,81.99,66,95,3.58,overcast clouds
561,Shingu,JP,2022-08-10 22:09:01,33.7333,135.9833,80.58,87,100,1.34,overcast clouds
562,Omboue,GA,2022-08-10 22:09:02,-1.5746,9.2618,71.73,87,18,8.08,few clouds
563,Ende,ID,2022-08-10 22:09:02,-8.8432,121.6623,76.87,87,94,1.63,overcast clouds
564,Kholodnyy,RU,2022-08-10 22:09:02,62.7167,147.95,55.31,87,100,1.43,overcast clouds
565,Marshall,US,2022-08-10 22:09:03,34.3834,-86.3333,84.18,76,0,4.61,clear sky
566,Paamiut,GL,2022-08-10 22:03:21,61.994,-49.6678,43.72,91,100,4.47,light rain
567,Naze,JP,2022-08-10 22:01:48,28.3667,129.4833,80.24,76,100,1.92,overcast clouds
568,Tilichiki,RU,2022-08-10 22:03:54,60.4667,166.1,51.06,95,100,9.75,moderate rain
569,Labuhan,ID,2022-08-10 22:03:39,-6.8844,112.2051,75.85,90,58,6.71,broken clouds
570,Chongwe,ZM,2022-08-10 22:09:03,-15.3292,28.682,59.23,42,0,2.17,clear sky
571,Falmouth,GB,2022-08-10 22:09:04,50.1544,-5.0711,67.1,63,0,5.75,clear sky
572,Khash,IR,2022-08-10 22:09:04,28.2211,61.2158,79.05,22,99,8.23,overcast clouds
573,Grimstad,NO,2022-08-10 22:09:04,58.3405,8.5934,63.23,81,2,15.73,clear sky
574,Rafaela,AR,2022-08-10 22:09:05,-31.2503,-61.4867,55.98,50,90,4.0,overcast clouds
575,Puerto Madryn,AR,2022-08-10 22:09:05,-42.7692,-65.0385,53.31,52,100,2.66,overcast clouds
576,Susanville,US,2022-08-10 22:04:33,40.4163,-120.653,87.64,15,0,17.27,clear sky
577,Hauterive,FR,2022-08-10 22:09:06,46.0901,3.4459,68.76,38,2,1.28,clear sky
578,Novoorsk,RU,2022-08-10 22:09:06,51.381,58.9813,64.6,62,7,5.39,clear sky
579,Formosa Do Rio Preto,BR,2022-08-10 22:09:06,-11.0483,-45.1931,78.12,22,1,3.65,clear sky
580,Pandrup,DK,2022-08-10 22:09:07,57.2215,9.6757,58.95,88,6,6.91,clear sky
581,Kushiro,JP,2022-08-10 22:09:07,42.975,144.3747,68.95,100,75,4.61,fog
582,Buraydah,SA,2022-08-10 22:04:03,26.326,43.975,95.99,16,28,9.4,scattered clouds
583,Valle De Allende,MX,2022-08-10 22:09:08,26.9333,-105.4,80.08,39,91,7.27,overcast clouds
584,Hohhot,CN,2022-08-10 22:09:08,40.8106,111.6522,68.11,92,17,0.54,few clouds
585,Te Anau,NZ,2022-08-10 22:09:08,-45.4167,167.7167,36.5,86,29,0.89,scattered clouds
586,Tabas,IR,2022-08-10 22:09:09,33.5959,56.9244,84.34,22,0,3.58,clear sky
587,Miri,MY,2022-08-10 22:09:09,4.4148,114.0089,75.99,92,78,4.81,broken clouds
588,Winsum,NL,2022-08-10 22:09:09,53.33,6.5208,66.18,84,56,9.31,broken clouds
589,Vanino,RU,2022-08-10 22:09:10,49.0869,140.2543,66.15,72,59,3.51,broken clouds
590,Boende,CD,2022-08-10 22:09:10,-0.2167,20.8667,76.93,57,41,3.15,scattered clouds
591,Petawawa,CA,2022-08-10 22:09:10,45.9001,-77.3328,81.79,53,0,7.47,clear sky
592,Clyde River,CA,2022-08-10 22:01:35,70.4692,-68.5914,41.79,72,95,3.38,overcast clouds
593,Puro,PH,2022-08-10 22:09:11,12.4841,123.3827,79.68,79,89,2.28,overcast clouds
594,Beyneu,KZ,2022-08-10 22:09:11,45.3167,55.2,81.19,37,1,11.3,clear sky
595,Bulgan,MN,2022-08-10 22:09:11,48.8125,103.5347,51.48,88,88,4.81,overcast clouds
596,Bay Roberts,CA,2022-08-10 22:09:12,47.5999,-53.2648,59.32,87,100,8.01,overcast clouds
597,Zhigansk,RU,2022-08-10 22:04:15,66.7697,123.3711,59.04,77,100,10.54,overcast clouds
598,Vernon,CA,2022-08-10 22:09:12,50.2581,-119.2691,91.24,34,83,3.65,broken clouds
599,Guiren,CN,2022-08-10 22:09:12,33.6697,118.1889,79.07,93,99,1.32,overcast clouds
600,Lac-Megantic,CA,2022-08-10 22:09:12,45.5834,-70.8823,65.55,79,98,3.15,overcast clouds
601,Znamenskoye,RU,2022-08-10 22:09:13,57.1281,73.8282,59.81,97,86,6.38,overcast clouds
602,Shalakusha,RU,2022-08-10 22:09:13,62.2247,40.2539,51.58,84,49,3.98,scattered clouds
603,Qadirpur Ran,PK,2022-08-10 22:09:14,30.2924,71.6712,91.29,51,0,6.15,clear sky
604,Athabasca,CA,2022-08-10 22:09:14,54.7169,-113.2854,78.64,46,0,9.22,clear sky
605,Marsh Harbour,BS,2022-08-10 22:04:22,26.5412,-77.0636,83.89,72,5,12.73,clear sky
606,Machaneng,BW,2022-08-10 22:09:14,-23.1862,27.4886,62.47,42,0,2.75,clear sky
607,Barrhead,GB,2022-08-10 22:09:15,55.7992,-4.3929,62.76,84,43,5.75,scattered clouds
608,Sena Madureira,BR,2022-08-10 22:09:15,-9.0656,-68.6569,81.36,50,10,4.05,clear sky
609,Chimore,BO,2022-08-10 22:09:15,-16.9833,-65.1333,65.73,73,0,0.58,clear sky
610,Montero,BO,2022-08-10 22:09:16,-17.3333,-63.25,70.7,30,0,4.5,clear sky
611,Keti Bandar,PK,2022-08-10 22:09:16,24.1447,67.4497,82.36,90,100,10.47,overcast clouds
612,Biritiba-Mirim,BR,2022-08-10 22:09:16,-23.5698,-46.0407,57.38,61,3,16.69,clear sky
613,Hay River,CA,2022-08-10 22:05:13,60.8156,-115.7999,80.92,31,73,13.31,broken clouds
614,Teguldet,RU,2022-08-10 22:09:17,57.3064,88.1667,61.56,87,36,1.99,scattered clouds
615,Ambilobe,MG,2022-08-10 22:09:17,-13.2,49.05,64.29,76,1,3.76,clear sky
616,Loano,IT,2022-08-10 22:09:17,44.133,8.2513,81.55,57,99,4.0,overcast clouds
617,Gejiu,CN,2022-08-10 22:09:18,23.306,103.1635,58.3,93,99,5.17,overcast clouds
618,Somerset East,ZA,2022-08-10 22:09:18,-32.7217,25.588,49.77,90,46,3.6,scattered clouds
619,Mao,ES,2022-08-10 22:04:44,39.8885,4.2658,81.16,69,0,3.44,clear sky
620,Atagay,RU,2022-08-10 22:09:19,55.1033,99.3875,55.4,98,70,2.62,light rain
621,Yulara,AU,2022-08-10 22:05:00,-25.2406,130.9889,50.77,49,100,2.19,overcast clouds
622,Kudahuvadhoo,MV,2022-08-10 22:09:19,2.6708,72.8944,80.47,80,78,5.53,broken clouds
623,Galle,LK,2022-08-10 22:05:48,6.0367,80.217,77.47,91,79,8.43,broken clouds
624,Torrijos,ES,2022-08-10 22:09:19,39.9819,-4.2835,78.8,45,27,0.72,scattered clouds
625,Upata,VE,2022-08-10 22:09:20,8.0086,-62.3989,82.18,89,100,3.74,overcast clouds
626,Bandarbeyla,SO,2022-08-10 22:09:20,9.4942,50.8122,77.07,80,94,32.53,overcast clouds
627,Togur,RU,2022-08-10 22:09:20,58.3631,82.8265,59.38,97,26,6.67,scattered clouds
628,Igrim,RU,2022-08-10 22:09:21,63.1906,64.4162,58.44,64,98,6.42,overcast clouds
629,Rovaniemi,FI,2022-08-10 22:09:21,66.5,25.7167,62.01,88,100,14.97,overcast clouds
630,Emba,KZ,2022-08-10 22:09:22,48.8264,58.1442,73.87,44,3,7.49,clear sky
631,Jizan,SA,2022-08-10 22:00:21,17.3333,42.6667,89.56,67,99,6.53,overcast clouds
632,Machico,PT,2022-08-10 22:09:22,32.7,-16.7667,72.23,68,40,6.91,scattered clouds
633,Guaruja,BR,2022-08-10 22:09:22,-23.9931,-46.2564,65.89,26,10,1.99,clear sky
634,Saint-Denis,FR,2022-08-10 22:04:26,48.9167,2.3333,79.11,39,0,6.91,clear sky
635,Old Saybrook,US,2022-08-10 22:05:19,41.2918,-72.3762,85.82,75,20,5.75,few clouds
636,Baghdad,IQ,2022-08-10 22:07:49,33.3406,44.4009,89.51,35,0,11.5,clear sky
637,Rumonge,BI,2022-08-10 22:09:23,-3.9736,29.4386,74.55,56,56,3.87,broken clouds
638,Muzaffarabad,PK,2022-08-10 22:09:23,34.37,73.4711,77.56,85,1,3.51,clear sky
639,Quatre Cocos,MU,2022-08-10 22:04:44,-20.2078,57.7625,68.09,76,94,19.75,light rain
640,Matay,EG,2022-08-10 22:09:24,28.419,30.7792,85.44,29,0,7.81,clear sky
641,Awbari,LY,2022-08-10 22:09:24,26.5921,12.7805,86.56,21,0,9.24,clear sky
642,Petropavlovsk-Kamchatskiy,RU,2022-08-10 22:02:22,53.0452,158.6483,59.59,82,75,2.24,broken clouds
643,Mabay,PH,2022-08-10 22:09:25,6.0577,124.4666,77.04,85,16,4.41,few clouds
644,Mgandu,TZ,2022-08-10 22:09:25,-5.95,34.1333,62.49,58,60,10.85,broken clouds
645,Coffs Harbour,AU,2022-08-10 22:09:25,-30.3,153.1333,53.13,100,37,4.61,scattered clouds
646,Inongo,CD,2022-08-10 22:09:26,-1.95,18.2667,74.01,56,42,4.36,scattered clouds
647,Calabozo,VE,2022-08-10 22:09:26,8.9242,-67.4293,77.54,85,97,5.95,overcast clouds
648,Tam Ky,VN,2022-08-10 22:09:26,15.5667,108.4833,76.15,85,99,5.88,overcast clouds
649,Adrar,MR,2022-08-10 22:05:07,20.5022,-10.0711,101.59,15,53,8.25,broken clouds
650,Nacala,MZ,2022-08-10 22:09:27,-14.5428,40.6728,69.51,84,0,2.55,clear sky
651,Vaitape,PF,2022-08-10 22:09:27,-16.5167,-151.75,77.32,70,0,4.52,clear sky
652,Paris,FR,2022-08-10 22:05:46,48.8534,2.3488,78.15,41,0,6.91,clear sky
653,Pacifica,US,2022-08-10 22:06:00,37.6138,-122.4869,86.22,74,20,20.71,few clouds
654,Muriwai Beach,NZ,2022-08-10 22:09:28,-36.8167,174.45,50.95,83,13,8.59,few clouds
655,Kuytun,RU,2022-08-10 22:09:28,54.3419,101.5036,54.03,96,92,2.84,light rain
656,Atar,MR,2022-08-10 22:09:29,20.5169,-13.0499,96.89,9,47,9.73,scattered clouds
657,Gawler,AU,2022-08-10 22:05:53,-34.6,138.7333,49.96,85,1,7.65,clear sky
658,Carlisle,US,2022-08-10 22:09:29,40.2015,-77.1889,85.48,61,99,1.01,overcast clouds
659,Ornskoldsvik,SE,2022-08-10 22:09:29,63.2909,18.7153,59.95,94,100,8.05,overcast clouds
660,Kingaroy,AU,2022-08-10 22:09:30,-26.5333,151.8333,51.15,78,34,6.26,scattered clouds
661,Mamakan,RU,2022-08-10 22:09:30,57.8161,114.0028,54.84,98,100,1.3,overcast clouds
662,Black Forest,US,2022-08-10 22:09:30,39.0131,-104.7008,84.74,36,40,8.01,scattered clouds
663,Port Keats,AU,2022-08-10 22:09:31,-14.25,129.55,68.72,85,16,3.13,few clouds
664,Taltal,CL,2022-08-10 22:00:20,-25.4,-70.4833,60.51,73,24,3.04,few clouds
665,Tongliao,CN,2022-08-10 22:09:31,43.6125,122.2653,66.96,90,100,5.82,overcast clouds
666,Dongsheng,CN,2022-08-10 22:09:32,39.8161,109.9776,65.37,90,24,3.31,few clouds
667,Ivanino,RU,2022-08-10 22:09:32,51.6434,35.5769,64.13,96,100,14.7,overcast clouds
668,Humaita,BR,2022-08-10 22:04:47,-7.5061,-63.0208,83.79,53,77,0.96,broken clouds
669,Barcelona,ES,2022-08-10 22:08:34,41.3888,2.159,85.53,69,20,4.61,few clouds
670,Lubango,AO,2022-08-10 22:09:33,-14.9172,13.4925,60.73,29,0,3.98,clear sky
671,Haapiti,PF,2022-08-10 22:09:33,-17.5667,-149.8667,80.33,74,57,12.88,light rain
672,Beira,MZ,2022-08-10 22:09:30,-19.8436,34.8389,70.03,87,0,9.08,clear sky
673,Sopot,PL,2022-08-10 22:09:33,54.4418,18.56,57.96,90,0,3.44,clear sky
674,Nalgonda,IN,2022-08-10 22:09:34,17.05,79.2667,76.35,78,100,15.66,overcast clouds
675,Tura,IN,2022-08-10 21:57:07,25.5198,90.2201,73.78,90,80,6.42,broken clouds
676,Kansanshi,ZM,2022-08-10 22:09:34,-12.0951,26.4273,59.56,32,3,4.36,clear sky
677,Ilanskiy,RU,2022-08-10 22:09:34,56.2358,96.065,53.51,96,49,4.63,scattered clouds
678,Filadelfia,US,2022-08-10 22:08:25,39.9523,-75.1638,91.22,57,40,9.22,scattered clouds
679,Hinton,CA,2022-08-10 22:09:35,53.4001,-117.5857,88.34,21,1,1.5,clear sky
680,Zharkent,KZ,2022-08-10 22:09:35,44.1628,80.0,64.53,73,60,2.33,broken clouds
681,Devils Lake,US,2022-08-10 22:09:36,48.1128,-98.8651,73.94,49,0,10.36,clear sky
682,Novikovo,RU,2022-08-10 22:09:36,51.1537,37.8879,71.58,65,100,10.22,overcast clouds
683,Dillon,US,2022-08-10 22:07:05,34.4166,-79.3712,97.14,31,46,12.8,scattered clouds
684,Mogadishu,SO,2022-08-10 22:06:34,2.0371,45.3438,76.08,85,100,18.25,light rain
685,Imeni Zhelyabova,RU,2022-08-10 22:09:37,58.9544,36.5956,52.7,77,3,2.59,clear sky
686,La Reforma,MX,2022-08-10 22:09:37,25.0833,-108.05,89.65,62,91,10.63,overcast clouds
687,Bolobo,CD,2022-08-10 22:09:37,-2.1667,16.2333,82.36,38,63,1.52,broken clouds
688,Marsassoum,SN,2022-08-10 22:09:38,12.8275,-15.9806,78.49,89,100,7.76,overcast clouds
689,Outjo,NA,2022-08-10 22:09:38,-20.1167,16.15,61.52,22,0,1.99,clear sky
690,Tunceli,TR,2022-08-10 22:09:38,39.1083,39.5471,76.39,27,0,4.41,clear sky
691,Samarai,PG,2022-08-10 22:03:03,-10.6167,150.6667,78.28,76,89,17.29,overcast clouds
